[
    {"Lat": 53.349805, "Lng": -6.26031, "Category": "Landmark", "Name": "Ha'penny Bridge"},
    {"Lat": 53.3331, "Lng": -6.2489, "Category": "Museum", "Name": "The Little Museum of Dublin"},
    {"Lat": 53.3418, "Lng": -6.2871, "Category": "Park", "Name": "Phoenix Park"},
    {"Lat": 53.3533, "Lng": -6.5294, "Category": "Castle", "Name": "Clontarf Castle"},
    {"Lat": 53.3642, "Lng": -6.2677, "Category": "Historical Site", "Name": "Kilmainham Gaol"},
    {"Lat": 51.8477, "Lng": -9.5322, "Category": "Beach", "Name": "Cobh Beach"},
    {"Lat": 54.5922, "Lng": -5.9320, "Category": "Landmark", "Name": "The Giant's Causeway"},
    {"Lat": 53.274, "Lng": -6.427, "Category": "Museum", "Name": "National Gallery of Ireland"},
    {"Lat": 53.3601, "Lng": -6.3187, "Category": "Park", "Name": "St Stephen's Green"},
    {"Lat": 53.2963, "Lng": -6.4891, "Category": "Castle", "Name": "Dunmore Castle"},
    {"Lat": 51.8856, "Lng": -8.5369, "Category": "Historical Site", "Name": "Old Blarney Castle"},
    {"Lat": 52.3469, "Lng": -6.3628, "Category": "Beach", "Name": "Curracloe Strand"},
    {"Lat": 51.9020, "Lng": -8.2490, "Category": "Landmark", "Name": "Blarney Stone"},
    {"Lat": 53.3498, "Lng": -6.2603, "Category": "Museum", "Name": "Dublin Castle"},
    {"Lat": 53.2989, "Lng": -6.3783, "Category": "Park", "Name": "Howth Head"},
    {"Lat": 54.6045, "Lng": -5.9400, "Category": "Castle", "Name": "Carrickfergus Castle"},
    {"Lat": 52.6619, "Lng": -8.6260, "Category": "Historical Site", "Name": "King John's Castle"},
    {"Lat": 51.8440, "Lng": -8.2950, "Category": "Beach", "Name": "Trá na mBóine"},
    {"Lat": 53.2057, "Lng": -6.2308, "Category": "Landmark", "Name": "The Spire"},
    {"Lat": 53.2913, "Lng": -6.2949, "Category": "Museum", "Name": "Irish Museum of Modern Art"},
    {"Lat": 53.3920, "Lng": -6.4765, "Category": "Park", "Name": "Malahide Castle Park"},
    {"Lat": 51.8892, "Lng": -8.2980, "Category": "Castle", "Name": "Loudest Castle"},
    {"Lat": 53.1457, "Lng": -6.0672, "Category": "Historical Site", "Name": "Newgrange"},
    {"Lat": 54.1233, "Lng": -8.6160, "Category": "Beach", "Name": "Inisowen"},
    {"Lat": 54.6045, "Lng": -5.9332, "Category": "Landmark", "Name": "Carrickfergus Castle"},
    {"Lat": 53.4204, "Lng": -6.5911, "Category": "Museum", "Name": "National Museum of Ireland"},
    {"Lat": 51.8825, "Lng": -8.2192, "Category": "Park", "Name": "Fota Park"},
    {"Lat": 53.9052, "Lng": -7.9327, "Category": "Castle", "Name": "Sligo Abbey"},
    {"Lat": 53.3516, "Lng": -7.6720, "Category": "Historical Site", "Name": "Kilkenny Castle"},
    {"Lat": 51.8833, "Lng": -8.5278, "Category": "Beach", "Name": "Garryvoe Beach"},
    {"Lat": 53.6426, "Lng": -6.3835, "Category": "Landmark", "Name": "Malahide Castle"},
    {"Lat": 53.3420, "Lng": -6.1897, "Category": "Museum", "Name": "Chester Beatty Library"},
    {"Lat": 51.9170, "Lng": -8.4677, "Category": "Park", "Name": "Killarney National Park"},
    {"Lat": 53.2724, "Lng": -6.4790, "Category": "Castle", "Name": "Clara Castle"},
    {"Lat": 52.2452, "Lng": -7.2948, "Category": "Historical Site", "Name": "Rock of Cashel"},
    {"Lat": 51.7992, "Lng": -8.6934, "Category": "Beach", "Name": "Owenahincha Beach"},
    {"Lat": 53.4842, "Lng": -6.3139, "Category": "Landmark", "Name": "St. Patrick's Cathedral"},
    {"Lat": 52.9742, "Lng": -7.4888, "Category": "Museum", "Name": "Waterford Viking Museum"},
    {"Lat": 53.5685, "Lng": -6.2045, "Category": "Park", "Name": "Glenageary Park"},
    {"Lat": 51.9731, "Lng": -8.1386, "Category": "Castle", "Name": "Glenbower Castle"},
    {"Lat": 54.0525, "Lng": -8.0467, "Category": "Historical Site", "Name": "The Hill of Tara"},
    {"Lat": 51.8621, "Lng": -9.4264, "Category": "Beach", "Name": "Sandycove Beach"},
    {"Lat": 54.7759, "Lng": -6.5798, "Category": "Landmark", "Name": "Lowry's Arch"},
    {"Lat": 53.3441, "Lng": -6.2579, "Category": "Museum", "Name": "The Science Gallery"},
    {"Lat": 53.2031, "Lng": -6.5693, "Category": "Park", "Name": "Woodstock Gardens"},
    {"Lat": 52.2611, "Lng": -7.8329, "Category": "Castle", "Name": "Kilcolman Castle"},
    {"Lat": 54.4196, "Lng": -5.7043, "Category": "Historical Site", "Name": "Derry's Walls"},
    {"Lat": 53.3106, "Lng": -6.3268, "Category": "Beach", "Name": "Portmarnock Beach"},
    {"Lat": 53.2718, "Lng": -6.4823, "Category": "Landmark", "Name": "O'Connell Street"},
    {"Lat": 53.5354, "Lng": -6.4713, "Category": "Museum", "Name": "Hugh Lane Gallery"},
    {"Lat": 51.8950, "Lng": -8.1871, "Category": "Park", "Name": "Ballyseedy Castle"},
    {"Lat": 54.3881, "Lng": -8.3272, "Category": "Castle", "Name": "Lissadell House"},
    {"Lat": 53.5538, "Lng": -6.2677, "Category": "Historical Site", "Name": "Dublinia"},
    {"Lat": 51.8400, "Lng": -9.5247, "Category": "Beach", "Name": "Brandon Bay"},
    {"Lat": 53.6486, "Lng": -6.3826, "Category": "Landmark", "Name": "The Forty Foot"},
    {"Lat": 53.5364, "Lng": -6.1153, "Category": "Museum", "Name": "National Museum of Ireland - Decorative Arts & History"},
    {"Lat": 53.3051, "Lng": -6.1915, "Category": "Park", "Name": "The People's Park"},
    {"Lat": 51.8315, "Lng": -9.4403, "Category": "Castle", "Name": "Ross Castle"},
    {"Lat": 52.3545, "Lng": -6.9949, "Category": "Historical Site", "Name": "Monasterboice"},
    {"Lat": 52.2353, "Lng": -7.7841, "Category": "Beach", "Name": "Kilmore Quay"},
    {"Lat": 53.1370, "Lng": -6.0644, "Category": "Landmark", "Name": "Moynalty Windmill"},
    {"Lat": 53.3478, "Lng": -6.3010, "Category": "Museum", "Name": "The Irish Museum of Modern Art"},
    {"Lat": 52.6340, "Lng": -8.5845, "Category": "Park", "Name": "Ballysaggartmore Towers"},
    {"Lat": 54.0372, "Lng": -8.6478, "Category": "Castle", "Name": "Bantry House"},
    {"Lat": 52.6654, "Lng": -8.6332, "Category": "Historical Site", "Name": "The Rock of Dunamase"},
    {"Lat": 51.7957, "Lng": -9.5282, "Category": "Beach", "Name": "Ballinskelligs Beach"},
    {"Lat": 54.5750, "Lng": -5.9193, "Category": "Landmark", "Name": "Carrick-a-Rede Rope Bridge"},
    {"Lat": 53.3501, "Lng": -6.2935, "Category": "Museum", "Name": "The Natural History Museum"},
    {"Lat": 53.2241, "Lng": -6.2903, "Category": "Park", "Name": "Herbert Park"},
    {"Lat": 54.5967, "Lng": -6.6045, "Category": "Castle", "Name": "Ballygally Castle"},
    {"Lat": 52.5527, "Lng": -7.1000, "Category": "Historical Site", "Name": "Jerpoint Abbey"},
    {"Lat": 51.8448, "Lng": -9.4794, "Category": "Beach", "Name": "Garretstown Beach"},
    {"Lat": 53.3878, "Lng": -6.0762, "Category": "Landmark", "Name": "Cliffs of Moher"},
    {"Lat": 52.2522, "Lng": -7.3458, "Category": "Museum", "Name": "The Waterford Museum of Treasures"},
    {"Lat": 53.0425, "Lng": -9.5040, "Category": "Park", "Name": "Lough Key Forest Park"},
    {"Lat": 54.2204, "Lng": -8.4541, "Category": "Castle", "Name": "Castle Coole"},
    {"Lat": 54.4127, "Lng": -7.0089, "Category": "Historical Site", "Name": "The Grianan of Aileach"},
    {"Lat": 51.9633, "Lng": -8.4900, "Category": "Beach", "Name": "Silver Strand"},
    {"Lat": 53.2730, "Lng": -6.1180, "Category": "Landmark", "Name": "The Druid's Seat"},
    {"Lat": 53.5570, "Lng": -6.2434, "Category": "Museum", "Name": "The Irish Whiskey Museum"},
    {"Lat": 53.5298, "Lng": -6.3935, "Category": "Park", "Name": "Shaw's Gardens"},
    {"Lat": 51.9301, "Lng": -8.9967, "Category": "Castle", "Name": "Ballyfin Demesne"},
    {"Lat": 52.3771, "Lng": -6.9260, "Category": "Historical Site", "Name": "Kilkenny's Black Abbey"},
    {"Lat": 54.6167, "Lng": -8.2661, "Category": "Beach", "Name": "Bundoran Beach"},
    {"Lat": 52.0621, "Lng": -6.1343, "Category": "Landmark", "Name": "Dún Aonghasa"},
    {"Lat": 53.2455, "Lng": -6.9020, "Category": "Museum", "Name": "National Museum of Ireland - Archaeology"},
    {"Lat": 52.9390, "Lng": -6.3051, "Category": "Park", "Name": "Riverside Park"},
    {"Lat": 54.5308, "Lng": -8.0298, "Category": "Castle", "Name": "Dunluce Castle"},
    {"Lat": 52.3140, "Lng": -6.3084, "Category": "Historical Site", "Name": "The Abbey of Jerpoint"},
    {"Lat": 51.7584, "Lng": -9.3984, "Category": "Beach", "Name": "Derrynane Beach"},
    {"Lat": 53.3923, "Lng": -6.5764, "Category": "Landmark", "Name": "Kilbarrack Church"},
    {"Lat": 53.4240, "Lng": -7.0660, "Category": "Museum", "Name": "Tipperary Museum"},
    {"Lat": 54.3134, "Lng": -8.0244, "Category": "Park", "Name": "Lough Erne Resort"},
    {"Lat": 52.9290, "Lng": -8.9419, "Category": "Castle", "Name": "Zoological Park in Fota"},
    {"Lat": 51.8806, "Lng": -8.5134, "Category": "Historical Site", "Name": "Ballyhar Castle"},
    {"Lat": 53.1497, "Lng": -6.1133, "Category": "Beach", "Name": "Portmarnock Strand"},
    {"Lat": 51.8905, "Lng": -9.7273, "Category": "Landmark", "Name": "Skellig Michael"},
    {"Lat": 53.2295, "Lng": -7.2703, "Category": "Museum", "Name": "Ballycroy Visitor Centre"},
    {"Lat": 52.6450, "Lng": -6.2794, "Category": "Park", "Name": "Duck Pond Park"},
    {"Lat": 53.0270, "Lng": -8.6422, "Category": "Castle", "Name": "Shannon Castle"}
]